rosbagTimestamp,header,seq,stamp,secs,nsecs,frame_id,coordinate_frame,type_mask,position,x,y,z,velocity,x,y,z,acceleration_or_force,x,y,z,yaw,yaw_rate
1536033121521832290,,0,,1536033121,521180569,'',1,0,,-0.140773430467,0.140819236636,0.104241207242,,9.62614990471e-07,9.90927219391e-07,-0.699999988079,,0.0,0.0,0.0,0.217675402761,0.0
1536033121621814916,,1,,1536033121,621225297,'',1,0,,-0.140630364418,0.140693232417,0.104070201516,,5.52088010868e-07,8.06897844541e-07,-0.0397699996829,,0.0,0.0,0.0,0.217674568295,0.0
1536033121733255840,,2,,1536033121,732938530,'',1,0,,-0.140526711941,0.140522912145,0.103874452412,,1.25989311073e-06,6.79492927702e-07,-0.05272000283,,0.0,0.0,0.0,0.217655256391,0.0
1536033121822821640,,3,,1536033121,822688811,'',1,0,,-0.140457436442,0.140368118882,0.103706002235,,6.51180755544e-07,5.94556297528e-07,-0.0371199995279,,0.0,0.0,0.0,0.217806652188,0.0
1536033121922468543,,4,,1536033121,921825047,'',1,0,,-0.14045420289,0.140193834901,0.103466831148,,9.48458875888e-07,1.09001996407e-06,-0.0460000000894,,0.0,0.0,0.0,0.217754080892,0.0
1536033122023705060,,5,,1536033122,23385650,'',1,0,,-0.140453547239,0.140114679933,0.103245377541,,2.97278148769e-07,2.54809862099e-07,-0.0416200011969,,0.0,0.0,0.0,0.217724397779,0.0
1536033122132479673,,6,,1536033122,132072747,'',1,0,,-0.140522927046,0.140048399568,0.103120267391,,1.07586379273e-06,9.34302818223e-07,-0.0400599986315,,0.0,0.0,0.0,0.217732623219,0.0
1536033122223275938,,7,,1536033122,222897338,'',1,0,,-0.140603616834,0.139974027872,0.103083319962,,3.25590377774e-07,2.40653747596e-07,-0.0359000004828,,0.0,0.0,0.0,0.21771736443,0.0
1536033122324023376,,8,,1536033122,323187474,'',1,0,,-0.140749290586,0.13986736536,0.103093415499,,3.82214778943e-07,5.66244125366e-07,-0.0447099991143,,0.0,0.0,0.0,0.21757645905,0.0
1536033122432494041,,9,,1536033122,432152055,'',1,0,,-0.140845119953,0.139703482389,0.103231139481,,1.27404931055e-07,4.24683079814e-08,-0.0443499982357,,0.0,0.0,0.0,0.21753950417,0.0
1536033122523071487,,10,,1536033122,522586584,'',1,0,,-0.140877485275,0.139588043094,0.103300586343,,8.06897844546e-07,4.10526979522e-07,-0.0426700003445,,0.0,0.0,0.0,0.217525795102,0.0
1536033122622446381,,11,,1536033122,622034843,'',1,0,,-0.14088755846,0.139507576823,0.103298395872,,1.6987323193e-07,1.55717131634e-07,-0.0374599993229,,0.0,0.0,0.0,0.217582061887,0.0
1536033122722551736,,12,,1536033122,722128798,'',1,0,,-0.140904501081,0.139451518655,0.103312648833,,5.23775781862e-07,5.23775781858e-07,-0.0314100012183,,0.0,0.0,0.0,0.217522576451,0.0
1536033122823406379,,13,,1536033122,822797209,'',1,0,,-0.14093631506,0.139387965202,0.103292323649,,1.41561031347e-07,-4.24683079814e-08,-0.0422799997032,,0.0,0.0,0.0,0.217533066869,0.0
1536033122923311377,,14,,1536033122,922965791,'',1,0,,-0.140985772014,0.13934764266,0.103388853371,,6.79492927707e-07,4.24683094025e-07,-0.0370399989188,,0.0,0.0,0.0,0.217551782727,0.0
1536033123022497928,,15,,1536033123,21900721,'',1,0,,-0.1410677284,0.139294326305,0.103513799608,,5.66244118324e-08,9.90927233602e-08,-0.0512900017202,,0.0,0.0,0.0,0.217606142163,0.0
1536033123123691644,,16,,1536033123,123139201,'',1,0,,-0.141201034188,0.13925807178,0.103625304997,,1.55717131638e-07,2.26497647304e-07,-0.0359100028872,,0.0,0.0,0.0,0.21756131947,0.0
1536033123223586367,,17,,1536033123,223227130,'',1,0,,-0.141314476728,0.139220163226,0.103629797697,,4.24683079869e-08,-9.90927233602e-08,-0.0448000021279,,0.0,0.0,0.0,0.217557027936,0.0
1536033123332897422,,18,,1536033123,331548828,'',1,0,,-0.141420558095,0.13918684423,0.103566169739,,1.27404931055e-07,4.24683079814e-08,-0.0405000001192,,0.0,0.0,0.0,0.217543676496,0.0
1536033123432428033,,19,,1536033123,432155250,'',1,0,,-0.1415271312,0.139184981585,0.103442922235,,4.96594917537e-18,2.8312205913e-08,-0.0405500009656,,0.0,0.0,0.0,0.217605188489,0.0
1536033123523505895,,20,,1536033123,523160184,'',1,0,,-0.141563236713,0.139209792018,0.103392422199,,1.6987323193e-07,1.9818544672e-07,-0.0354800000787,,0.0,0.0,0.0,0.217573955655,0.0
1536033123622566379,,21,,1536033123,622025762,'',1,0,,-0.141580402851,0.139332979918,0.103372551501,,3.6805866444e-07,1.84029332218e-07,-0.037720002234,,0.0,0.0,0.0,0.217571809888,0.0
1536033123723890637,,22,,1536033123,723595239,'',1,0,,-0.141532644629,0.139465868473,0.10332608223,,2.68965948186e-07,1.55717131634e-07,-0.0457599982619,,0.0,0.0,0.0,0.217590048909,0.0
1536033123921426873,,23,,1536033123,921168339,'',1,0,,-0.141348004341,0.139633998275,0.103357993066,,2.83122062687e-07,3.82214778938e-07,-0.0336600020528,,0.0,0.0,0.0,0.217539384961,0.0
1536033124023492779,,24,,1536033124,22468546,'',1,0,,-0.141321182251,0.139676809311,0.103356897831,,2.54809862104e-07,1.84029332218e-07,-0.0374299995601,,0.0,0.0,0.0,0.217606142163,0.0
1536033124132635179,,25,,1536033124,132156888,'',1,0,,-0.141360625625,0.139678314328,0.103301309049,,5.6624411832e-08,4.24683079814e-08,-0.0481399968266,,0.0,0.0,0.0,0.217614606023,0.0
1536033124223423256,,26,,1536033124,222155152,'',1,0,,-0.141427874565,0.139741644263,0.103135153651,,5.66244118307e-08,2.97278148764e-07,-0.0377300009131,,0.0,0.0,0.0,0.217634752393,0.0
1536033124332097903,,27,,1536033124,331836144,'',1,0,,-0.141552075744,0.139809638262,0.102973788977,,-1.41561029509e-08,5.80400239869e-07,-0.0460400022566,,0.0,0.0,0.0,0.217528417706,0.0
1536033124423509450,,28,,1536033124,422586258,'',1,0,,-0.141631454229,0.139887541533,0.102909632027,,3.39746463856e-07,5.23775781858e-07,-0.0370899997652,,0.0,0.0,0.0,0.217615202069,0.0
1536033124523302008,,29,,1536033124,522906732,'',1,0,,-0.141692072153,0.139927208424,0.102895021439,,-4.24683079772e-08,4.81307495193e-07,-0.0345100015402,,0.0,0.0,0.0,0.217738702893,0.0
1536033124622959836,,30,,1536033124,622499746,'',1,0,,-0.141689166427,0.139917328954,0.102949343622,,9.90927233648e-08,5.94556297528e-07,-0.037879999727,,0.0,0.0,0.0,0.217757418752,0.0
1536033124734225454,,31,,1536033124,733467630,'',1,0,,-0.141700148582,0.139921218157,0.103078134358,,-1.13248823648e-07,5.94556297528e-07,-0.0340999998152,,0.0,0.0,0.0,0.21780975163,0.0
1536033124822982666,,32,,1536033124,822150776,'',1,0,,-0.141728252172,0.139924556017,0.103177756071,,2.40653747596e-07,4.24683094025e-07,1.49011611938e-08,,0.0,0.0,0.0,0.217911794782,0.0
1536033124922658357,,33,,1536033124,922480664,'',1,0,,-0.141760990024,0.13989444077,0.103317290545,,-1.9818544672e-07,6.37024641037e-07,-7.45058059692e-09,,0.0,0.0,0.0,0.217967107892,0.0
1536033125032521467,,34,,1536033125,32071890,'',1,0,,-0.141798898578,0.139917925,0.10339576751,,2.8312205913e-08,9.62614990385e-07,7.45058059692e-08,,0.0,0.0,0.0,0.217907264829,0.0
1536033125132929157,,35,,1536033125,132446879,'',1,0,,-0.141775950789,0.139981865883,0.10351100564,,-7.07805156708e-08,5.80400239869e-07,-1.49011611938e-08,,0.0,0.0,0.0,0.217928960919,0.0
1536033125232352303,,36,,1536033125,232109920,'',1,0,,-0.141788065434,0.140011742711,0.103559501469,,4.24683079814e-08,6.5118075554e-07,2.23517417908e-08,,0.0,0.0,0.0,0.217933133245,0.0
1536033125332563737,,37,,1536033125,332232901,'',1,0,,-0.141822308302,0.1399487257,0.103508912027,,-9.90927233602e-08,1.84029332218e-07,-1.34110450745e-07,,0.0,0.0,0.0,0.217970326543,0.0
1536033125432794121,,38,,1536033125,431847966,'',1,0,,-0.141882523894,0.139877274632,0.103437125683,,-3.8221477894e-07,7.78585672379e-07,0.0143244452775,,0.0,0.0,0.0,0.21797581017,0.0
1536033125522358409,,39,,1536033125,522025498,'',1,0,,-0.141950652003,0.139791548252,0.10333353281,,-8.4936615968e-08,4.24683094025e-07,0.0428099967539,,0.0,0.0,0.0,0.218051627278,0.0
1536033125632564280,,40,,1536033125,631923034,'',1,0,,-0.142006143928,0.13971953094,0.103257596493,,-9.90927233644e-08,4.81307495193e-07,0.0341200008988,,0.0,0.0,0.0,0.218128636479,0.0
1536033125722887767,,41,,1536033125,722473379,'',1,0,,-0.142032206059,0.139657497406,0.103218369186,,-1.13248823658e-07,1.9818544672e-07,0.0458500012755,,0.0,0.0,0.0,0.218188837171,0.0
1536033125822720151,,42,,1536033125,822337839,'',1,0,,-0.142077997327,0.139635622501,0.103207401931,,-3.96370893446e-07,6.37024641037e-07,0.040989998728,,0.0,0.0,0.0,0.218172386289,0.0
1536033125933280684,,43,,1536033125,932106009,'',1,0,,-0.142096534371,0.13966242969,0.103289186954,,-9.90927233647e-08,4.81307495193e-07,0.0373400002718,,0.0,0.0,0.0,0.218232110143,0.0
1536033126022920787,,44,,1536033126,21918279,'',1,0,,-0.142117738724,0.139680117369,0.103436917067,,-7.07805156762e-08,3.53902578354e-07,0.0446899980307,,0.0,0.0,0.0,0.218302562833,0.0
1536033126122606541,,45,,1536033126,122143001,'',1,0,,-0.142135366797,0.139758184552,0.103575140238,,-7.07805156755e-08,2.26497647304e-07,0.0385800004005,,0.0,0.0,0.0,0.218296006322,0.0
1536033126222488264,,46,,1536033126,222111414,'',1,0,,-0.142166048288,0.13983130455,0.103871010244,,5.56759514439e-05,-3.8532911276e-05,-0.314036756754,,0.00978993903845,0.00185489980504,6.21778726578,0.218257382512,0.0
1536033126322576019,,47,,1536033126,322320436,'',1,0,,-0.142166048288,0.13983130455,0.113384455442,,0.000806260854006,0.000243739777943,0.00446903333068,,0.0291931200773,0.00104528665543,6.55605888367,0.218257382512,0.0
1536033126422621772,,48,,1536033126,422206634,'',1,0,,-0.142166048288,0.13983130455,0.136286079884,,0.00404272833839,9.08255533432e-05,0.345529556274,,0.0970877110958,-0.0100732306018,6.92480325699,0.218257382512,0.0
1536033126522292113,,49,,1536033126,522189023,'',1,0,,-0.142166048288,0.13983130455,0.175909280777,,0.0115459579974,-0.000583174813073,0.682675242424,,0.150015711784,-0.00842017028481,7.2283744812,0.218257382512,0.0
1536033126632771156,,50,,1536033126,631900803,'',1,0,,-0.142166048288,0.13983130455,0.235464304686,,0.0235273577273,-0.00155143812299,1.0230448246,,0.200674489141,-0.0211106296629,7.47165155411,0.218257382512,0.0
1536033126723302250,,51,,1536033126,722461223,'',1,0,,-0.142166048288,0.13983130455,0.317939400673,,0.039012324065,-0.0029789111577,1.35485351086,,0.238048702478,-0.0302815064788,7.66140842438,0.218257382512,0.0
1536033126822852962,,52,,1536033126,822543702,'',1,0,,-0.142166048288,0.13983130455,0.423230797052,,0.0566988736391,-0.00504616927356,1.35485351086,,0.24594694376,-0.0299347620457,7.28825283051,0.218257382512,0.0
1536033126924059979,,53,,1536033126,923478122,'',1,0,,-0.142166048288,0.13983130455,0.542663753033,,0.0750105306506,-0.00761970644817,1.32369160652,,0.245321989059,-0.0333381295204,7.04388999939,0.218257382512,0.0
1536033127022208908,,54,,1536033127,22109167,'',1,0,,-0.142166048288,0.13983130455,0.661355316639,,0.0912791192532,-0.0104456469417,1.06223571301,,0.227266132832,-0.0340247191489,6.60753726959,0.218257382512,0.0
1536033127133691046,,55,,1536033127,133557091,'',1,0,,-0.142166048288,0.13983130455,0.77520519495,,0.105277605355,-0.0131073193625,1.04762065411,,0.204079031944,-0.0263837929815,6.68091917038,0.218257382512,0.0
1536033127223015013,,56,,1536033127,222199374,'',1,0,,-0.142166048288,0.13983130455,0.886628568172,,0.116976238787,-0.0151130417362,0.632985591888,,0.207923665643,-0.0271789152175,6.06731510162,0.218257382512,0.0
1536033127321691172,,57,,1536033127,321050163,'',1,0,,-0.142166048288,0.13983130455,0.983113050461,,0.126259550452,-0.0162953585386,0.381694376469,,0.190837398171,-0.0180677529424,5.86472272873,0.218257382512,0.0
1536033127421485717,,58,,1536033127,421125943,'',1,0,,-0.142166048288,0.13983130455,1.06598782539,,0.133392393589,-0.0168053470552,0.46960195899,,0.185298636556,-0.0189560353756,6.38876628876,0.218257382512,0.0
1536033127521658100,,59,,1536033127,521142408,'',1,0,,-0.142166048288,0.13983130455,1.1350338459,,0.137799754739,-0.0166662912816,0.000380754470825,,0.167006596923,-0.0154306637123,5.78870391846,0.218257382512,0.0
1536033127632118654,,60,,1536033127,631577487,'',1,0,,-0.142166048288,0.13983130455,1.1350338459,,0.139627531171,-0.0161261651665,-0.0487270355225,,0.150779530406,-0.0193173978478,6.02137851715,0.218257382512,0.0
1536033127722146582,,61,,1536033127,721838684,'',1,0,,-0.142166048288,0.13983130455,1.1350338459,,0.138876006007,-0.0153053943068,-0.0822106599808,,0.127975016832,-0.0134004727006,6.20560359955,0.218257382512,0.0
1536033127832439556,,62,,1536033127,831637892,'',1,0,,-0.142166048288,0.13983130455,1.1350338459,,0.135716572404,-0.0141347981989,-0.102977514267,,0.108507081866,-0.000927379936911,6.33623886108,0.218257382512,0.0
1536033127923141181,,63,,1536033127,922534036,'',1,0,,-0.142166048288,0.13983130455,1.1350338459,,0.130702644587,-0.0124828936532,-0.114480733871,,0.0923397168517,0.00621210876852,6.44948244095,0.218257382512,0.0
1536033128023243348,,64,,1536033128,22791946,'',1,0,,-0.142166048288,0.13983130455,1.1350338459,,0.124313570559,-0.0102360090241,-0.119421243668,,0.0860385447741,0.0171971973032,6.54209184647,0.218257382512,0.0
1536033128132142915,,65,,1536033128,131646811,'',1,0,,-0.142166048288,0.13983130455,1.1350338459,,0.116435222328,-0.00725034531206,-0.120271444321,,0.0731707662344,0.0184668339789,6.58594751358,0.218257382512,0.0
1536033128222893616,,66,,1536033128,222320247,'',1,0,,-0.142166048288,0.13983130455,1.1350338459,,0.108288861811,-0.00412590941414,-0.118613243103,,0.0628453046083,0.0204024668783,6.6227645874,0.218257382512,0.0
1536033128331588363,,67,,1536033128,330998419,'',1,0,,-0.142166048288,0.13983130455,1.1350338459,,0.0990460216999,-0.000557382416446,-0.114995002747,,0.0450543165207,0.0350057408214,6.63870239258,0.218257382512,0.0
1536033128432298300,,68,,1536033128,431864999,'',1,0,,-0.142166048288,0.13983130455,1.1350338459,,0.0892107710242,0.00322161754593,-0.110157489777,,0.0348201841116,0.0362070836127,6.65885162354,0.218257382512,0.0
1536033128522447369,,69,,1536033128,522240488,'',1,0,,-0.142166048288,0.13983130455,1.1350338459,,0.0783743560314,0.00752832880244,-0.104389548302,,0.015420883894,0.0483168996871,6.66142940521,0.218257382512,0.0
1536033128621921542,,70,,1536033128,621528867,'',1,0,,-0.142166048288,0.13983130455,1.1350338459,,0.0677320808172,0.0118800420314,-0.0994123220444,,0.000805512303486,0.0520532950759,6.68085670471,0.218257382512,0.0
1536033128721607334,,71,,1536033128,721089779,'',1,0,,-0.142166048288,0.13983130455,1.1350338459,,0.056162301451,0.0165806263685,-0.0945036411285,,-0.00921618379653,0.062787771225,6.6695022583,0.218257382512,0.0
1536033128822175391,,72,,1536033128,821952884,'',1,0,,-0.142166048288,0.13983130455,1.1350338459,,0.0438428223133,0.0212654527277,-0.0901403427124,,-0.0211267992854,0.0548638887703,6.67776060104,0.218257382512,0.0
1536033128922908530,,73,,1536033128,922629146,'',1,0,,-0.142166048288,0.13983130455,1.1350338459,,0.0313985347748,0.02563473396,-0.0861941576004,,-0.0310004744679,0.061422187835,6.66731882095,0.218257382512,0.0
1536033129032825317,,74,,1536033129,32301087,'',1,0,,-0.142166048288,0.13983130455,1.1350338459,,0.0188040323555,0.0297300033271,-0.0831644535065,,-0.0520339161158,0.070853613317,6.64590740204,0.218257382512,0.0
1536033129123515028,,75,,1536033129,122797105,'',1,0,,-0.142166048288,0.13983130455,1.1350338459,,0.00585820572451,0.0335790626705,-0.0809187889099,,-0.0656639039516,0.0666848421097,6.65667295456,0.218257382512,0.0
1536033129222678928,,76,,1536033129,222343967,'',1,0,,-0.142166048288,0.13983130455,1.1350338459,,-0.00708646001294,0.0372714884579,-0.079253911972,,-0.078809440136,0.0643751472235,6.64540433884,0.218257382512,0.0
1536033129322017821,,77,,1536033129,321587507,'',1,0,,-0.142166048288,0.13983130455,1.1350338459,,-0.0198161154985,0.0408308357,-0.0782260894775,,-0.0819918736815,0.0737778544426,6.63489246368,0.218257382512,0.0
1536033129443075320,,78,,1536033129,442902102,'',1,0,,-0.142166048288,0.13983130455,1.1350338459,,-0.0320415869355,0.0440326631069,-0.0776823759079,,-0.100592941046,0.069985024631,6.63519239426,0.218257382512,0.0
1536033129522984306,,79,,1536033129,522544867,'',1,0,,-0.142166048288,0.13983130455,1.1350338459,,-0.0438176766038,0.04697137326,-0.0773456096649,,-0.103595614433,0.0740759968758,6.63778781891,0.218257382512,0.0
1536033129623481237,,80,,1536033129,623116887,'',1,0,,-0.142166048288,0.13983130455,1.1350338459,,-0.0541585683823,0.0496615432203,-0.0767790079117,,-0.111780263484,0.0842212513089,6.64328527451,0.218257382512,0.0
1536033129743602718,,81,,1536033129,742577797,'',1,0,,-0.142166048288,0.13983130455,1.1350338459,,-0.0646155774593,0.0523880012333,-0.0763069391251,,-0.122015811503,0.0782488808036,6.64149904251,0.218257382512,0.0
1536033129832801256,,82,,1536033129,832366780,'',1,0,,-0.142166048288,0.13983130455,1.1350338459,,-0.0750910416245,0.0551526509225,-0.0760309696198,,-0.119611978531,0.086009092629,6.64576101303,0.218257382512,0.0
1536033129954172766,,83,,1536033129,952663017,'',1,0,,-0.142166048288,0.13983130455,1.1350338459,,-0.0852411463857,0.0578629523516,-0.0760321617126,,-0.132362693548,0.0970042198896,6.62928390503,0.218257382512,0.0
1536033130052309107,,84,,1536033130,52042761,'',1,0,,-0.142166048288,0.13983130455,1.1350338459,,-0.0950430855155,0.0606581419706,-0.0761140584946,,-0.13280133903,0.0948161408305,6.63865613937,0.218257382512,0.0
1536033130121687501,,85,,1536033130,121292663,'',1,0,,-0.142166048288,0.13983130455,1.1350338459,,-0.104176454246,0.0631297677755,-0.0760983228683,,-0.146906793118,0.0982552096248,6.62973165512,0.218257382512,0.0
1536033130221533622,,86,,1536033130,221164910,'',1,0,,-0.142166048288,0.13983130455,1.1350338459,,-0.112868480384,0.0649161040783,-0.0763617753983,,-0.151105031371,0.0829550549388,6.62172222137,0.218257382512,0.0
1536033130332620035,,87,,1536033130,331076922,'',1,0,,-0.142166048288,0.13983130455,1.1350338459,,-0.120120041072,0.0658284500241,-0.0770616531372,,-0.143273234367,0.0746665224433,6.62188720703,0.218257382512,0.0
1536033130434618514,,88,,1536033130,433690797,'',1,0,,-0.142166048288,0.13983130455,1.1350338459,,-0.126263663173,0.0662694498897,-0.0775787830353,,-0.151596143842,0.0830163061619,6.61023426056,0.218257382512,0.0
1536033130521660395,,89,,1536033130,521521040,'',1,0,,-0.142166048288,0.13983130455,1.1350338459,,-0.13168425858,0.0665761232376,-0.0774356126785,,-0.147760227323,0.0829004570842,6.63394832611,0.218257382512,0.0
1536033130621672972,,90,,1536033130,621133792,'',1,0,,-0.142166048288,0.13983130455,1.1350338459,,-0.136291205883,0.0666697695851,-0.0770061016083,,-0.151905462146,0.0805212333798,6.63829946518,0.218257382512,0.0
1536033130723314040,,91,,1536033130,722971679,'',1,0,,-0.142166048288,0.13983130455,1.1350338459,,-0.140549138188,0.0663763210177,-0.0760535001755,,-0.16190096736,0.082767650485,6.63412952423,0.218257382512,0.0
1536033130822973206,,92,,1536033130,822484740,'',1,0,,-0.142166048288,0.13983130455,1.1350338459,,-0.144030898809,0.0657457709312,-0.0750615596771,,-0.164149940014,0.0691300556064,6.64324140549,0.218257382512,0.0
1536033130922294098,,93,,1536033130,921735780,'',1,0,,-0.142166048288,0.13983130455,1.1350338459,,-0.146666660905,0.0647946000099,-0.0737355947495,,-0.159927964211,0.0770920664072,6.64687252045,0.218257382512,0.0
1536033131022988923,,94,,1536033131,22613698,'',1,0,,-0.142166048288,0.13983130455,1.1350338459,,-0.14869184792,0.0636340305209,-0.072288274765,,-0.154082715511,0.0727313905954,6.64832305908,0.218257382512,0.0
1536033131123367737,,95,,1536033131,122258251,'',1,0,,-0.142166048288,0.13983130455,1.1350338459,,-0.150016382337,0.0623450502753,-0.0709211826324,,-0.155593752861,0.0638755485415,6.64624881744,0.218257382512,0.0
1536033131247464322,,96,,1536033131,246050289,'',1,0,,-0.142166048288,0.13983130455,1.1350338459,,-0.15077444911,0.060787614435,-0.0697745084763,,-0.161083698273,0.0721225515008,6.63417100906,0.218257382512,0.0
1536033131324012287,,97,,1536033131,322289393,'',1,0,,-0.142166048288,0.13983130455,1.1350338459,,-0.15103366971,0.0591176711023,-0.0686712265015,,-0.153982907534,0.0668289661407,6.65338611603,0.218257382512,0.0
1536033131434425090,,98,,1536033131,432496152,'',1,0,,-0.142166048288,0.13983130455,1.1350338459,,-0.150700688362,0.0573926344514,-0.0677272081375,,-0.154944300652,0.0665727630258,6.63983774185,0.218257382512,0.0
1536033131522513879,,99,,1536033131,522068727,'',1,0,,-0.142166048288,0.13983130455,1.1350338459,,-0.149886146188,0.0555830039084,-0.0667885541916,,-0.156196832657,0.0594814866781,6.64338636398,0.218257382512,0.0
1536033131643425524,,100,,1536033131,642777715,'',1,0,,-0.142166048288,0.13983130455,1.1350338459,,-0.148834332824,0.0536909848452,-0.0662481784821,,-0.160927683115,0.0723056122661,6.65417671204,0.218257382512,0.0
1536033131723114515,,101,,1536033131,722886345,'',1,0,,-0.142166048288,0.13983130455,1.1350338459,,-0.147654309869,0.0518996864557,-0.0654790401459,,-0.16117836535,0.0775793045759,6.66074800491,0.218257382512,0.0
1536033131832437583,,102,,1536033131,831690134,'',1,0,,-0.142166048288,0.13983130455,1.1350338459,,-0.146268963814,0.0503479652107,-0.0645154714584,,-0.154516503215,0.0724119767547,6.6422252655,0.218257382512,0.0
1536033131922545826,,103,,1536033131,922099411,'',1,0,,-0.142166048288,0.13983130455,1.1350338459,,-0.144669979811,0.049116935581,-0.0641515254974,,-0.151925772429,0.0696470737457,6.63563251495,0.218257382512,0.0
1536033132023003592,,104,,1536033132,22264368,'',1,0,,-0.142166048288,0.13983130455,1.1350338459,,-0.142708837986,0.0480230301619,-0.0641907453537,,-0.154980659485,0.077677808702,6.63517093658,0.218257382512,0.0
1536033132123096535,,105,,1536033132,122838301,'',1,0,,-0.142166048288,0.13983130455,1.1350338459,,-0.14075794816,0.047254819423,-0.0648002624512,,-0.13825841248,0.0769646018744,6.63455438614,0.218257382512,0.0
1536033132243533564,,106,,1536033132,242136618,'',1,0,,-0.142166048288,0.13983130455,1.1350338459,,-0.138642936945,0.0468316711485,-0.0657603740692,,-0.162542060018,0.0757770687342,6.62061357498,0.218257382512,0.0
1536033132332663237,,107,,1536033132,332263949,'',1,0,,-0.142166048288,0.13983130455,1.1350338459,,-0.136646285653,0.0467572696507,-0.0667519569397,,-0.146850258112,0.0801407396793,6.60371494293,0.218257382512,0.0
1536033132423135492,,108,,1536033132,422996062,'',1,0,,-0.000755378277972,0.0906248092651,1.1350338459,,-0.0202519856393,-0.0609144382179,-0.0678216218948,,-0.0410167425871,-0.00859847664833,6.61002016068,0.218257382512,0.0
1536033132546781938,,109,,1536033132,546568231,'',1,0,,-0.00286597688682,0.0900530591607,1.1350338459,,0.0506106168032,-0.228191226721,-0.0685684680939,,0.0135998697951,-0.15248849988,6.62540388107,0.218257382512,0.0
1536033132622163014,,110,,1536033132,621873680,'',1,0,,-0.00441759964451,0.0882178321481,1.1350338459,,0.0142751317471,-0.0643631666899,-0.0688517093658,,-0.0395971387625,0.0174675192684,6.6220498085,0.218257382512,0.0
1536033132748085184,,111,,1536033132,747281095,'',1,0,,-0.00459209224209,0.0845606029034,1.1350338459,,0.013182323426,-0.0594359636307,-0.0684415102005,,-0.055548787117,0.0408090539277,6.62151765823,0.218257382512,0.0
1536033132846649052,,112,,1536033132,845039849,'',1,0,,-0.00318930135109,0.0794676691294,1.1350338459,,0.0152779370546,-0.0688845813274,-0.0679649114609,,-0.0584311336279,0.020316908136,6.62182950974,0.218257382512,0.0
1536033132960213720,,113,,1536033132,959422644,'',1,0,,-0.000951815221924,0.0737561956048,1.1350338459,,0.0224374420941,-0.101165086031,-0.067474603653,,-0.0662433132529,-0.00211610179394,6.633248806,0.218257382512,0.0
1536033133045431341,,114,,1536033133,44916262,'',1,0,,-0.000568295188714,0.0729083642364,1.1350338459,,-0.00230340845883,0.00441353302449,-0.066761136055,,-0.0966667309403,0.0858395248652,6.63115549088,0.218257382512,0.0
1536033133152229439,,115,,1536033133,151387212,'',1,0,,-0.000568295188714,0.0729083642364,1.1350338459,,-0.00466260826215,0.00791697017848,-0.0665934085846,,-0.0864764526486,0.0750540792942,6.62281322479,0.218257382512,0.0
1536033133245891710,,116,,1536033133,245444845,'',1,0,,-0.000568295188714,0.0729083642364,1.1350338459,,-0.00725842034444,0.0111258830875,-0.0665811300278,,-0.0921985730529,0.0660673379898,6.62291717529,0.218257382512,0.0
1536033133342702633,,117,,1536033133,342519715,'',1,0,,-0.000568295188714,0.0729083642364,1.1350338459,,-0.00969236530364,0.0135851521045,-0.0666167736053,,-0.0934504419565,0.0600277334452,6.62370872498,0.218257382512,0.0
1536033133445494726,,118,,1536033133,444926020,'',1,0,,-0.000568295188714,0.0729083642364,1.1350338459,,-0.0126524232328,0.0158910676837,-0.0666698217392,,-0.101783253253,0.0654990077019,6.60450696945,0.218257382512,0.0
1536033133558344558,,119,,1536033133,556440284,'',1,0,,-0.000568295188714,0.0729083642364,1.1350338459,,-0.0161737818271,0.0193345639855,-0.0663385391235,,-0.111760780215,0.066301330924,6.62317228317,0.218257382512,0.0
1536033133644432433,,120,,1536033133,643899640,'',1,0,,-0.000568295188714,0.0729083642364,1.1350338459,,-0.0200809855014,0.0225256364793,-0.0654830932617,,-0.112334430218,0.0527721568942,6.625020504,0.218257382512,0.0
1536033133721544378,,121,,1536033133,721366597,'',1,0,,-0.000568295188714,0.0729083642364,1.1350338459,,-0.0237418971956,0.0250666085631,-0.0643275976181,,-0.117260828614,0.0561062507331,6.63442516327,0.218257382512,0.0
1536033133844401935,,122,,1536033133,843274411,'',1,0,,-0.000568295188714,0.0729083642364,1.1350338459,,-0.0275301635265,0.0269334260374,-0.0632421970367,,-0.134442523122,0.0629431009293,6.62080955505,0.218257382512,0.0
1536033133922425335,,123,,1536033133,922240492,'',1,0,,-0.000568295188714,0.0729083642364,1.1350338459,,-0.0327814668417,0.0287397522479,-0.0625360012054,,-0.134935677052,0.0484224967659,6.61946439743,0.218257382512,0.0
1536033134021966960,,124,,1536033134,21519245,'',1,0,,-0.000568295188714,0.0729083642364,1.1350338459,,-0.0381304807961,0.0296283941716,-0.0619665384293,,-0.14423879981,0.0521936714649,6.61504364014,0.218257382512,0.0
1536033134131471083,,125,,1536033134,131305965,'',1,0,,-0.000568295188714,0.0729083642364,1.1350338459,,-0.0436346977949,0.0294112823904,-0.0611611604691,,-0.15804694593,0.0440104454756,6.62786149979,0.218257382512,0.0
1536033134232587521,,126,,1536033134,232417616,'',1,0,,-0.000568295188714,0.0729083642364,1.1350338459,,-0.0495283193886,0.0281082410365,-0.0602024793625,,-0.158432543278,0.0376192480326,6.63269042969,0.218257382512,0.0
1536033134321696944,,127,,1536033134,321337395,'',1,0,,-0.000568295188714,0.0729083642364,1.1350338459,,-0.0550128668547,0.0258716791868,-0.0591019392014,,-0.15506708622,0.0318675562739,6.63525819778,0.218257382512,0.0
1536033134432661053,,128,,1536033134,432153824,'',1,0,,-0.000568295188714,0.0729083642364,1.1350338459,,-0.0603831484914,0.0225592721254,-0.0578433275223,,-0.165107011795,0.0114430002868,6.63731813431,0.218257382512,0.0
1536033134521997220,,129,,1536033134,521361087,'',1,0,,-0.000568295188714,0.0729083642364,1.1350338459,,-0.0648027732968,0.0186246968806,-0.0564939975739,,-0.162453323603,0.00893886759877,6.64594268799,0.218257382512,0.0
1536033134622913377,,130,,1536033134,622204654,'',1,0,,-0.000568295188714,0.0729083642364,1.1350338459,,-0.0683441385627,0.0141877280548,-0.0551459789276,,-0.16288356483,0.00518377311528,6.64554166794,0.218257382512,0.0
1536033134722663646,,131,,1536033134,722529954,'',1,0,,-0.000568295188714,0.0729083642364,1.1350338459,,-0.071147300303,0.00926196295768,-0.0539234876633,,-0.158028304577,0.00118716852739,6.63136529922,0.218257382512,0.0
1536033134822854304,,132,,1536033134,821948024,'',1,0,,-0.000568295188714,0.0729083642364,1.1350338459,,-0.0732661858201,0.00424449518323,-0.0532203912735,,-0.160277843475,-0.006345665548,6.62847757339,0.218257382512,0.0
1536033134922558946,,133,,1536033134,922097481,'',1,0,,-0.000568295188714,0.0729083642364,1.1350338459,,-0.0748999789357,-0.000905169523321,-0.0529153347015,,-0.167632937431,-0.0111886393279,6.6227312088,0.218257382512,0.0
1536033135032766355,,134,,1536033135,31837512,'',1,0,,-0.000568295188714,0.0729083642364,1.1350338459,,-0.0761538892984,-0.00579637195915,-0.0531146526337,,-0.15614771843,-0.00704049319029,6.62096738815,0.218257382512,0.0
1536033135123293286,,135,,1536033135,122482373,'',1,0,,-0.000568295188714,0.0729083642364,1.1350338459,,-0.0771453157067,-0.0101823853329,-0.0535839796066,,-0.145867735147,-0.0111332312226,6.60267877579,0.218257382512,0.0
1536033135222795597,,136,,1536033135,222446811,'',1,0,,-0.000568295188714,0.0729083642364,1.1350338459,,-0.0777727216482,-0.0139103317633,-0.0541653633118,,-0.159609347582,-0.00380224641412,6.58713006973,0.218257382512,0.0
1536033135322495552,,137,,1536033135,322258057,'',1,0,,-0.000568295188714,0.0729083642364,1.1350338459,,-0.0780728086829,-0.0171737950295,-0.0548521280289,,-0.14984510839,-0.0137031776831,6.60395956039,0.218257382512,0.0
1536033135433394783,,138,,1536033135,433214927,'',1,0,,-0.000568295188714,0.0729083642364,1.1350338459,,-0.0780318006873,-0.0197432693094,-0.055259346962,,-0.163365617394,-0.0100688897073,6.60547161102,0.218257382512,0.0
1536033135522040591,,139,,1536033135,521402308,'',1,0,,-0.000568295188714,0.0729083642364,1.1350338459,,-0.0776721760631,-0.0219578631222,-0.0556375980377,,-0.14033472538,-0.0128149464726,6.60077238083,0.218257382512,0.0
1536033135643048038,,140,,1536033135,642416280,'',1,0,,-0.000568295188714,0.0729083642364,1.1350338459,,-0.0770385414362,-0.0237260889262,-0.0561717748642,,-0.151917994022,-0.000350674323272,6.59120702744,0.218257382512,0.0
1536033135721987956,,141,,1536033135,721438550,'',1,0,,-0.000568295188714,0.0729083642364,1.1350338459,,-0.0759317278862,-0.0250808484852,-0.0567606687546,,-0.150773584843,-0.00827517732978,6.58842992783,0.218257382512,0.0
1536033135844151978,,142,,1536033135,842942189,'',1,0,,-0.000568295188714,0.0729083642364,1.1350338459,,-0.0743992328644,-0.0262875501066,-0.0574598312378,,-0.145626068115,-0.0147353904322,6.57649850845,0.218257382512,0.0
1536033135923592074,,143,,1536033135,922653019,'',1,0,,-0.000568295188714,0.0729083642364,1.1350338459,,-0.0722374990582,-0.0272182580084,-0.0580359697342,,-0.13792526722,-0.00204327632673,6.59498119354,0.218257382512,0.0
1536033136022516566,,144,,1536033136,21820856,'',1,0,,-0.000568295188714,0.0729083642364,1.1350338459,,-0.0698239430785,-0.027965452522,-0.0583550930023,,-0.128188252449,-0.0136654051021,6.58240318298,0.218257382512,0.0
1536033136146557550,,145,,1536033136,146354543,'',1,0,,-0.000568295188714,0.0729083642364,1.1350338459,,-0.0673100799322,-0.0287272129208,-0.0588368177414,,-0.132009208202,-0.0108158290386,6.57670974731,0.218257382512,0.0
1536033136222686138,,146,,1536033136,222319126,'',1,0,,-0.000568295188714,0.0729083642364,1.1350338459,,-0.0651764050126,-0.0295175556093,-0.0591952800751,,-0.144394502044,-0.00839897245169,6.59732151031,0.218257382512,0.0
1536033136332674652,,147,,1536033136,332284277,'',1,0,,-0.000568295188714,0.0729083642364,1.1350338459,,-0.0630525127053,-0.0302906837314,-0.0589179992676,,-0.141733050346,-0.0124955549836,6.58765220642,0.218257382512,0.0
1536033136422845309,,148,,1536033136,422033020,'',1,0,,-0.000568295188714,0.0729083642364,1.1350338459,,-0.0598533973098,-0.0314441025257,-0.0592272281647,,-0.122841097414,-0.0187796317041,6.58654403687,0.218257382512,0.0
1536033136542323657,,149,,1536033136,542110650,'',1,0,,-0.000568295188714,0.0729083642364,1.1350338459,,-0.0559310689569,-0.0329569354653,-0.0597096681595,,-0.128586351871,-0.0240103360265,6.5932431221,0.218257382512,0.0
1536033136622662470,,150,,1536033136,622160153,'',1,0,,-0.000568295188714,0.0729083642364,1.1350338459,,-0.0519264116883,-0.0347339250147,-0.0602384805679,,-0.119440875947,-0.0321859642863,6.59443426132,0.218257382512,0.0
1536033136732339711,,151,,1536033136,732049839,'',1,0,,-0.000568295188714,0.0729083642364,1.1350338459,,-0.0479617789388,-0.0366963855922,-0.0603122711182,,-0.117226444185,-0.0279584992677,6.59843492508,0.218257382512,0.0
1536033136832964934,,152,,1536033136,832222347,'',1,0,,-0.000568295188714,0.0729083642364,1.1350338459,,-0.0445211194456,-0.0388295799494,-0.0600564479828,,-0.122371248901,-0.0382733792067,6.60574102402,0.218257382512,0.0
1536033136921842049,,153,,1536033136,921644980,'',1,0,,-0.000568295188714,0.0729083642364,1.1350338459,,-0.0414680428803,-0.0411525331438,-0.0597681999207,,-0.124437846243,-0.0430761128664,6.60769367218,0.218257382512,0.0
1536033137032275128,,154,,1536033137,31281695,'',1,0,,-0.000568295188714,0.0729083642364,1.1350338459,,-0.0391022562981,-0.04339338094,-0.0591522455215,,-0.126007899642,-0.0327337011695,6.60926151276,0.218257382512,0.0
1536033137125248276,,155,,1536033137,124532790,'',1,0,,-0.000568295188714,0.0729083642364,1.19406461716,,-0.0374589897692,-0.0454074144363,0.16096380353,,-0.122789002955,-0.0505897141993,6.98812198639,0.218257382512,0.0
1536033137223103846,,156,,1536033137,222442812,'',1,0,,-0.000568295188714,0.0729083642364,1.20001852512,,-0.0363611467183,-0.0473433658481,0.344320267439,,-0.134869292378,-0.0387054681778,7.16813755035,0.218257382512,0.0
1536033137322774212,,157,,1536033137,322607531,'',1,0,,-0.000568295188714,0.0729083642364,1.21621203423,,-0.0355100259185,-0.0492709949613,0.359294265509,,-0.127779901028,-0.0522955618799,7.01247119904,0.218257382512,0.0
1536033137432928294,,158,,1536033137,432674173,'',1,0,,-0.000568295188714,0.0729083642364,1.240260005,,-0.0346998088062,-0.0512556172907,0.359390974045,,-0.122163370252,-0.0544122681022,6.87897586823,0.218257382512,0.0
1536033137534353242,,159,,1536033137,532439105,'',1,0,,-0.000568295188714,0.0729083642364,1.26879918575,,-0.0337167978287,-0.0532145127654,0.353837162256,,-0.12073007226,-0.059544287622,6.79921150208,0.218257382512,0.0
1536033137633426139,,160,,1536033137,632788956,'',1,0,,-0.000568295188714,0.0729083642364,1.29978609085,,-0.0327076502144,-0.0550492145121,0.351655632257,,-0.132206946611,-0.0502965413034,6.75229597092,0.218257382512,0.0
1536033137722427446,,161,,1536033137,721957456,'',1,0,,-0.000568295188714,0.0729083642364,1.33080935478,,-0.0319594815373,-0.0564948618412,0.35587233305,,-0.152311995625,-0.0558582916856,6.74385356903,0.218257382512,0.0
1536033137822692894,,162,,1536033137,822438586,'',1,0,,-0.000568295188714,0.0729083642364,1.36546862125,,-0.0321243405342,-0.0578096546233,0.34486797452,,-0.151570796967,-0.0494118593633,6.71306324005,0.218257382512,0.0
1536033137922240994,,163,,1536033137,921507845,'',1,0,,-0.000568295188714,0.0729083642364,1.39861214161,,-0.0328918136656,-0.0588619187474,0.344752073288,,-0.1444953233,-0.0596697218716,6.70782899857,0.218257382512,0.0
1536033138023048509,,164,,1536033138,22457340,'',1,0,,-0.000568295188714,0.0729083642364,1.43498909473,,-0.0340622290969,-0.0598634891212,0.330098599195,,-0.157178372145,-0.0682184174657,6.67484807968,0.218257382512,0.0
1536033138133638043,,165,,1536033138,132429691,'',1,0,,-0.000568295188714,0.0729083642364,1.47094762325,,-0.0355197861791,-0.0608912222087,0.315584868193,,-0.152769073844,-0.0731671974063,6.65402698517,0.218257382512,0.0
1536033138244483810,,166,,1536033138,242674276,'',1,0,,-0.000568295188714,0.0729083642364,1.50515758991,,-0.0371664501727,-0.0619258210063,0.0906651318073,,-0.155792742968,-0.0736554339528,6.2888584137,0.218257382512,0.0
1536033138323618571,,167,,1536033138,323398876,'',1,0,,-0.000568295188714,0.0729083642364,1.50515758991,,-0.0389379411936,-0.0629669725895,-0.0294591188431,,-0.165782734752,-0.0693474784493,6.22101688385,0.218257382512,0.0
1536033138432907400,,168,,1536033138,431986658,'',1,0,,-0.000568295188714,0.0729083642364,1.50515758991,,-0.0409197285771,-0.0638871490955,-0.0473393201828,,-0.166628524661,-0.076250821352,6.35760164261,0.218257382512,0.0
1536033138532816724,,169,,1536033138,532149815,'',1,0,,-0.000568295188714,0.0729083642364,1.50515758991,,-0.0432596541941,-0.0645907223225,-0.0591576099396,,-0.166304156184,-0.0745661109686,6.43290901184,0.218257382512,0.0
1536033138632604694,,170,,1536033138,631787943,'',1,0,,-0.000568295188714,0.0729083642364,1.50515758991,,-0.0455194935203,-0.0651957020164,-0.0663877725601,,-0.175476804376,-0.0679894164205,6.48129940033,0.218257382512,0.0
1536033138721531098,,171,,1536033138,721225638,'',1,0,,-0.000568295188714,0.0729083642364,1.50515758991,,-0.0474510937929,-0.06561268121,-0.0706073045731,,-0.163174957037,-0.0694635137916,6.53745412827,0.218257382512,0.0
1536033138822362902,,172,,1536033138,821796746,'',1,0,,-0.000568295188714,0.0729083642364,1.50515758991,,-0.0489355586469,-0.0658021569252,-0.0720663070679,,-0.160343050957,-0.0640778765082,6.57233190536,0.218257382512,0.0
1536033138923691660,,173,,1536033138,923294435,'',1,0,,-0.000568295188714,0.0729083642364,1.50515758991,,-0.0500212982297,-0.0656257644296,-0.0717689990997,,-0.151192173362,-0.0747222974896,6.59836864471,0.218257382512,0.0
1536033139023562420,,174,,1536033139,22652691,'',1,0,,-0.000568295188714,0.0729083642364,1.50515758991,,-0.0506876073778,-0.0653054118156,-0.0702689886093,,-0.157749086618,-0.0695104971528,6.60115528107,0.218257382512,0.0
1536033139122582090,,175,,1536033139,122303581,'',1,0,,-0.000568295188714,0.0729083642364,1.50515758991,,-0.0510373786092,-0.0647139772773,-0.0679932832718,,-0.163931936026,-0.059151776135,6.6196064949,0.218257382512,0.0
1536033139222440075,,176,,1536033139,222126952,'',1,0,,-0.000568295188714,0.0729083642364,1.50515758991,,-0.0509903281927,-0.0642382353544,-0.0647212266922,,-0.154593363404,-0.0776580572128,6.63828992844,0.218257382512,0.0
1536033139333395558,,177,,1536033139,332698723,'',1,0,,-0.000568295188714,0.0729083642364,1.50515758991,,-0.0505898445845,-0.0640787929296,-0.0610342025757,,-0.158427074552,-0.0784459039569,6.63544464111,0.218257382512,0.0
1536033139431586839,,178,,1536033139,431410921,'',1,0,,-0.000568295188714,0.0729083642364,1.50515758991,,-0.0500126741827,-0.0642405971885,-0.0573060512543,,-0.153012484312,-0.0809037014842,6.65376615524,0.218257382512,0.0
1536033139521886188,,179,,1536033139,521584778,'',1,0,,-0.000568295188714,0.0729083642364,1.50515758991,,-0.049127176404,-0.0647354573011,-0.0540746450424,,-0.153324022889,-0.0773739144206,6.6343126297,0.218257382512,0.0
1536033139632762293,,180,,1536033139,632414145,'',1,0,,-0.000568295188714,0.0729083642364,1.50515758991,,-0.0477852225304,-0.0655718371272,-0.050708770752,,-0.140438631177,-0.0919071435928,6.65721893311,0.218257382512,0.0
1536033139723380553,,181,,1536033139,722857198,'',1,0,,-0.000568295188714,0.0729083642364,1.50515758991,,-0.0462121516466,-0.0665169879794,-0.0479469299316,,-0.135001301765,-0.0906302854419,6.65851593018,0.218257382512,0.0
1536033139822268856,,182,,1536033139,821819729,'',1,0,,-0.000568295188714,0.0729083642364,1.50515758991,,-0.0444711260498,-0.0676447749138,-0.0452488660812,,-0.145708307624,-0.0929700508714,6.64921617508,0.218257382512,0.0
1536033139922656321,,183,,1536033139,922467152,'',1,0,,-0.000568295188714,0.0729083642364,1.50515758991,,-0.0428135283291,-0.0687255263329,-0.0425682067871,,-0.166830837727,-0.0858218893409,6.66061067581,0.218257382512,0.0
1536033140043039310,,184,,1536033140,42314249,'',1,0,,-0.000568295188714,0.0729083642364,1.50515758991,,-0.0411069653928,-0.0694815889001,-0.0397484302521,,-0.134037315845,-0.0894728004932,6.67478704453,0.218257382512,0.0
1536033140142258762,,185,,1536033140,141656505,'',1,0,,-0.000568295188714,0.0729083642364,1.50515758991,,-0.0391446389258,-0.0699578821659,-0.0369287729263,,-0.144818797708,-0.0916508957744,6.65648651123,0.218257382512,0.0
1536033140222558448,,186,,1536033140,222114784,'',1,0,,-0.000568295188714,0.0729083642364,1.50515758991,,-0.0369266197085,-0.0700877904892,-0.0345371961594,,-0.135116443038,-0.0834332481027,6.65813589096,0.218257382512,0.0
1536033140322252253,,187,,1536033140,321918642,'',1,0,,-0.000568295188714,0.0729083642364,1.50515758991,,-0.0345691628754,-0.0700583234429,-0.0327581167221,,-0.132556140423,-0.0887600630522,6.65918493271,0.218257382512,0.0
1536033140423832868,,188,,1536033140,423149821,'',1,0,,-0.000568295188714,0.0729083642364,1.50515758991,,-0.0322861894965,-0.0698515102267,-0.0316009521484,,-0.127534136176,-0.0885861814022,6.64966678619,0.218257382512,0.0
1536033140532604318,,189,,1536033140,531980723,'',1,0,,-0.000568295188714,0.0729083642364,1.50515758991,,-0.0302952714264,-0.0694989860058,-0.0302875041962,,-0.133601948619,-0.089289046824,6.66372108459,0.218257382512,0.0
1536033140622521055,,190,,1536033140,622228470,'',1,0,,-0.000568295188714,0.0729083642364,1.50515758991,,-0.0284179039299,-0.0689561292529,-0.028702378273,,-0.120204925537,-0.0911484733224,6.66529893875,0.218257382512,0.0
1536033140723846625,,191,,1536033140,723235917,'',1,0,,-0.000568295188714,0.0729083642364,1.50515758991,,-0.0265712495893,-0.0684268325567,-0.0273777246475,,-0.12653209269,-0.092808060348,6.65791845322,0.218257382512,0.0
1536033140832929797,,192,,1536033140,832747629,'',1,0,,-0.000568295188714,0.0729083642364,1.50515758991,,-0.0249324534088,-0.067874468863,-0.026503443718,,-0.1377800107,-0.0908605977893,6.64233779907,0.218257382512,0.0
1536033140922216963,,193,,1536033140,921325409,'',1,0,,-0.000568295188714,0.0729083642364,1.50515758991,,-0.0236280392855,-0.0672321245074,-0.0262253284454,,-0.13019734621,-0.0812586247921,6.64274787903,0.218257382512,0.0
1536033141021663322,,194,,1536033141,21285960,'',1,0,,-0.000568295188714,0.0729083642364,1.50515758991,,-0.0226017311215,-0.0663129389286,-0.0260525941849,,-0.150241971016,-0.0864553153515,6.63913440704,0.218257382512,0.0
1536033141122093763,,195,,1536033141,121577134,'',1,0,,-0.000568295188714,0.0729083642364,1.50515758991,,-0.0220553465188,-0.065272860229,-0.0257281064987,,-0.153112098575,-0.077441714704,6.64305448532,0.218257382512,0.0
1536033141222536779,,196,,1536033141,222107390,'',1,0,,-0.000568295188714,0.0729083642364,1.50515758991,,-0.0217672679573,-0.063782081008,-0.0249887704849,,-0.148045793176,-0.0754227265716,6.64495611191,0.218257382512,0.0
1536033141321460421,,197,,1536033141,321094472,'',1,0,,-0.000568295188714,0.0729083642364,1.50515758991,,-0.0215926356614,-0.0622818209231,-0.0240596532822,,-0.148135393858,-0.0906915143132,6.67060422897,0.218257382512,0.0
1536033141422331226,,198,,1536033141,422056417,'',1,0,,0.0222541689873,0.13689032197,1.50515758991,,0.282388776541,0.0306151583791,-0.0226485729218,,0.115115910769,-0.00486820656806,6.66650247574,0.218257382512,0.0
1536033141523043801,,199,,1536033141,522643426,'',1,0,,0.0231847539544,0.135628312826,1.50515758991,,0.766865849495,0.145558312535,-0.0204174518585,,0.521332383156,0.0928056910634,6.70622348785,0.218257382512,0.0
1536033141634019885,,200,,1536033141,633548457,'',1,0,,0.0276606269181,0.135219603777,1.50515758991,,1.25514245033,0.258040070534,-0.0174837112427,,0.882218241692,0.166581064463,6.70598983765,0.218257382512,0.0
1536033141733154034,,201,,1536033141,732387134,'',1,0,,0.0401788465679,0.136675208807,1.50515758991,,1.74141681194,0.369164973497,-0.0153512954712,,1.19748473167,0.247779339552,6.69380903244,0.218257382512,0.0
1536033141823271665,,202,,1536033141,822437775,'',1,0,,0.0653988793492,0.140963211656,1.50515758991,,2.23013901711,0.480442136526,-0.0153466463089,,1.47708082199,0.310055881739,6.65342521667,0.218257382512,0.0
1536033141922248146,,203,,1536033141,921535985,'',1,0,,0.105583414435,0.148518815637,1.50515758991,,2.68714690208,0.387779355049,-0.0173223018646,,1.71078336239,0.198943465948,6.63224077225,0.218257382512,0.0
1536033142022660724,,204,,1536033142,22268248,'',1,0,,0.17057543993,0.160886764526,1.50515758991,,3.06808853149,0.0369684100151,-0.0213899612427,,1.86377501488,-0.131838560104,6.59516716003,0.218257382512,0.0
1536033142123276758,,205,,1536033142,122685501,'',1,0,,0.253828436136,0.174387544394,1.50515758991,,3.36391019821,-0.345416516066,-0.025999546051,,1.94166183472,-0.442974835634,6.56358289719,0.218257382512,0.0
1536033142223028614,,206,,1536033142,222471621,'',1,0,,0.362277716398,0.185703873634,1.50515758991,,3.4361243248,-0.821288883686,-0.0305815935135,,1.81989049911,-0.777443945408,6.53367233276,0.218257382512,0.0
1536033142332478574,,207,,1536033142,332147500,'',1,0,,0.495144248009,0.189641937613,1.50515758991,,3.18552041054,-1.25557899475,-0.0350505113602,,1.46524977684,-1.05118596554,6.51870822906,0.218257382512,0.0
1536033142422325208,,208,,1536033142,421860468,'',1,0,,0.65069693327,0.181421965361,1.50515758991,,2.93701529503,-1.68578279018,-0.0387992858887,,1.13878154755,-1.28615343571,6.52151727676,0.218257382512,0.0
1536033142524267035,,209,,1536033142,523561238,'',1,0,,0.820243954659,0.157035857439,1.50515758991,,2.65244793892,-2.10283279419,-0.0404808521271,,0.862449765205,-1.50064480305,6.50997066498,0.218257382512,0.0
1536033142623539901,,210,,1536033142,623012434,'',1,0,,1.00116562843,0.113845258951,1.50515758991,,2.19900226593,-2.15884852409,-0.0408202409744,,0.453068435192,-1.37407255173,6.52041244507,0.218257382512,0.0
1536033142742787892,,211,,1536033142,742160584,'',1,0,,1.18965196609,0.0504849143326,1.50515758991,,1.75625550747,-1.92486870289,-0.0392998456955,,0.0775528103113,-1.02438235283,6.53883123398,0.218257382512,0.0
1536033142822442857,,212,,1536033142,821961604,'',1,0,,1.38380432129,-0.0321666188538,1.50515758991,,1.27376151085,-1.79032409191,-0.0364583730698,,-0.284624695778,-0.811807334423,6.56052541733,0.218257382512,0.0
1536033142932585651,,213,,1536033142,932191176,'',1,0,,1.5816783905,-0.133239537477,1.50515758991,,0.75764387846,-1.72812688351,-0.0333139896393,,-0.632148087025,-0.708520710468,6.55269432068,0.218257382512,0.0
1536033143022292893,,214,,1536033143,21870030,'',1,0,,1.75607597828,-0.237740263343,1.50515758991,,0.281140476465,-1.67042374611,-0.0315909385681,,-0.919052064419,-0.618943929672,6.55951547623,0.218257382512,0.0
1536033143132594255,,215,,1536033143,132088576,'',1,0,,1.92651224136,-0.358635783195,1.50515758991,,-0.22961564362,-1.57319331169,-0.0306445360184,,-1.16253566742,-0.513459324837,6.55157899857,0.218257382512,0.0
1536033143224749440,,216,,1536033143,223649066,'',1,0,,2.06533885002,-0.477499365807,1.50515758991,,-0.690785169601,-1.44163274765,-0.030238866806,,-1.40712177753,-0.355578184128,6.56624650955,0.218257382512,0.0
1536033143359281465,,217,,1536033143,358146015,'',1,0,,2.18604755402,-0.604979872704,1.50515758991,,-1.12747442722,-1.19988179207,-0.0300878286362,,-1.59228074551,-0.148039460182,6.59094190598,0.218257382512,0.0
1536033143422435193,,218,,1536033143,421689331,'',1,0,,2.28167676926,-0.735564887524,1.50515758991,,-1.42675030231,-0.80728250742,-0.0306355953217,,-1.65769839287,0.182222053409,6.59372186661,0.218257382512,0.0
1536033143532663290,,219,,1536033143,531575155,'',1,0,,2.35068440437,-0.864179074764,1.50515758991,,-1.53911435604,-0.316226869822,-0.0314502716064,,-1.56561303139,0.525015115738,6.5965051651,0.218257382512,0.0
1536033143632645167,,220,,1536033143,632143825,'',1,0,,2.39392447472,-0.985852599144,1.50515758991,,-1.55280137062,0.18323597312,-0.0324771404266,,-1.43333899975,0.878310918808,6.62563657761,0.218257382512,0.0
1536033143722203929,,221,,1536033143,721790441,'',1,0,,2.41567277908,-1.09812152386,1.50515758991,,-1.55940175056,0.682987928391,-0.0342367887497,,-1.32045888901,1.17643737793,6.60026454926,0.218257382512,0.0
1536033143832253633,,222,,1536033143,831885133,'',1,0,,2.41783261299,-1.19498646259,1.50515758991,,-1.55098867416,1.1812543869,-0.0375506877899,,-1.21615731716,1.44613599777,6.58096265793,0.218257382512,0.0
1536033143922364051,,223,,1536033143,921309479,'',1,0,,2.40260410309,-1.27175331116,1.50515758991,,-1.54879271984,1.68377912045,-0.0434997081757,,-1.12655961514,1.70621621609,6.51616430283,0.218257382512,0.0
1536033144022812680,,224,,1536033144,22398604,'',1,0,,2.37164378166,-1.32310187817,1.50515758991,,-1.70742964745,2.14837002754,-0.0508737564087,,-1.18834674358,1.90921497345,6.49099874496,0.218257382512,0.0
1536033144124810209,,225,,1536033144,123966681,'',1,0,,2.32695508003,-1.34627759457,1.50515758991,,-2.02050018311,1.98621428013,-0.0597945451736,,-1.38944602013,1.54309844971,6.43169784546,0.218257382512,0.0
1536033144223614747,,226,,1536033144,223220034,'',1,0,,2.26877808571,-1.34134471416,1.50515758991,,-2.03333282471,1.47768247128,-0.0677250623703,,-1.33229327202,0.959263145924,6.47303390503,0.218257382512,0.0
1536033144322647717,,227,,1536033144,322284156,'',1,0,,2.20112919807,-1.31581676006,1.50515758991,,-2.09284520149,1.00624978542,-0.0706752538681,,-1.28908920288,0.472505450249,6.54103136063,0.218257382512,0.0
1536033144445051848,,228,,1536033144,442925066,'',1,0,,2.11524105072,-1.2741060257,1.50515758991,,-1.90960121155,0.55305659771,-0.069171667099,,-1.06612372398,0.0897624343634,6.60125780106,0.218257382512,0.0
1536033144533311518,,229,,1536033144,532942356,'',1,0,,2.02649474144,-1.23043882847,1.50515758991,,-1.46457874775,0.376622766256,-0.0633747577667,,-0.638767123222,-0.0128735015169,6.65345048904,0.218257382512,0.0
1536033144623456662,,230,,1536033144,623056186,'',1,0,,1.92926037312,-1.18580687046,1.50515758991,,-0.563934266567,0.251962244511,-0.052796125412,,0.13994204998,-0.0664536505938,6.76491498947,0.218257382512,0.0
1536033144722037393,,231,,1536033144,721901488,'',1,0,,1.83102786541,-1.14345145226,1.50515758991,,4.63032723235e-18,-9.3207591939e-34,-0.0378094911575,,0.555571377277,-0.250568330288,6.81453704834,0.218257382512,0.0
1536033144842519061,,232,,1536033144,841855739,'',1,0,,1.73401296139,-1.10209155083,1.50515758991,,2.99108665939e-18,-6.02099961435e-34,-0.0244240760803,,0.410102695227,-0.200852647424,6.77396821976,0.218257382512,0.0
1536033144933302550,,233,,1536033144,933038392,'',1,0,,1.62590038776,-1.05633831024,1.50515758991,,-0.0249883532524,0.00963566266,-0.0163354873657,,0.291681975126,-0.150853157043,6.75534963608,0.218257382512,0.0
1536033145022417011,,234,,1536033145,21676624,'',1,0,,1.62590038776,-1.05633831024,1.50515758991,,0.0431637689471,-0.020727025345,-0.0105854272842,,0.276399284601,-0.14332896471,6.74913358688,0.218257382512,0.0
1536033145122591018,,235,,1536033145,122163592,'',1,0,,1.62590038776,-1.05633831024,1.50515758991,,0.103694923222,-0.047100186348,-0.00589764118195,,0.282683163881,-0.152660220861,6.74833345413,0.218257382512,0.0
1536033145242781514,,236,,1536033145,242498293,'',1,0,,1.62590038776,-1.05633831024,1.50515758991,,0.156973063946,-0.070058837533,-0.00211870670319,,0.276419997215,-0.146331697702,6.74717092514,0.218257382512,0.0
1536033145332433430,,237,,1536033145,332090081,'',1,0,,1.62590038776,-1.05633831024,1.50515758991,,0.202345862985,-0.088890530169,0.00145316123962,,0.28245434165,-0.144795164466,6.73509979248,0.218257382512,0.0
1536033145423469053,,238,,1536033145,422208437,'',1,0,,1.62590038776,-1.05633831024,1.50515758991,,0.243679299951,-0.105422087014,0.00511384010315,,0.263389706612,-0.137923717499,6.72198915482,0.218257382512,0.0
1536033145523439079,,239,,1536033145,522255465,'',1,0,,1.62590038776,-1.05633831024,1.50515758991,,0.275047630072,-0.117230027914,0.0085563659668,,0.235160708427,-0.139121174812,6.72343397141,0.218257382512,0.0
1536033145622386259,,240,,1536033145,622000796,'',1,0,,1.62590038776,-1.05633831024,1.50515758991,,0.299135327339,-0.125756874681,0.0118035078049,,0.206860631704,-0.124457523227,6.71715688705,0.218257382512,0.0
1536033145722261794,,241,,1536033145,721920196,'',1,0,,1.62590038776,-1.05633831024,1.50515758991,,0.314927190542,-0.130831778049,0.0145395994186,,0.197655618191,-0.128786921501,6.73617601395,0.212091758847,0.0
1536033145822277397,,242,,1536033145,822004263,'',1,0,,1.62590038776,-1.05633831024,1.50515758991,,0.324770659208,-0.133261755109,0.0172497034073,,0.159649893641,-0.103531338274,6.72976541519,0.182548120618,0.0
1536033145922563620,,243,,1536033145,922181408,'',1,0,,1.62590038776,-1.05633831024,1.50515758991,,0.328605741262,-0.132733672857,0.0199966430664,,0.13299909234,-0.0895115807652,6.75335550308,0.132793977857,0.0
1536033146043460227,,244,,1536033146,43040451,'',1,0,,1.62590038776,-1.05633831024,1.50515758991,,0.327261000872,-0.1295478791,0.0222885608673,,0.120742104948,-0.0585476011038,6.72525024414,0.0725553780794,0.0
1536033146131678508,,245,,1536033146,131485802,'',1,0,,1.62590038776,-1.05633831024,1.50515758991,,0.322254955769,-0.123833850026,0.0240904092789,,0.105514161289,-0.0512361638248,6.72591352463,0.0245312023908,0.0
1536033146224928466,,246,,1536033146,224633381,'',1,0,,1.62590038776,-1.05633831024,1.50515758991,,0.314950197935,-0.116744250059,0.0256536006927,,0.0900659412146,-0.0362717583776,6.73400783539,0.00905127916485,0.0
1536033146322932328,,247,,1536033146,322190879,'',1,0,,1.62590038776,-1.05633831024,1.50515758991,,0.306005001068,-0.109043613076,0.0275453329086,,0.0785205289721,-0.0296302698553,6.73259115219,0.00905521307141,0.0
1536033146422579231,,248,,1536033146,422158492,'',1,0,,1.62590038776,-1.05633831024,1.50515758991,,0.296240001917,-0.101222649217,0.0288600921631,,0.0667919442058,-0.0253952201456,6.72213792801,0.00905521307141,0.0
1536033146523437360,,249,,1536033146,522997809,'',1,0,,1.3258395195,-0.958181619644,1.50515758991,,0.0723516717553,-0.061126884073,0.0289514064789,,-0.148584455252,0.0121844960377,6.6925444603,0.00905521307141,0.0
1536033146633211843,,250,,1536033146,632875682,'',1,0,,1.33827710152,-0.966332256794,1.50515758991,,-0.42020881176,-0.107897095382,0.0276689529419,,-0.578031778336,-0.0261174663901,6.66879320145,0.00905521307141,0.0
1536033146722669302,,251,,1536033146,722210574,'',1,0,,1.34910523891,-0.974498033524,1.50515758991,,-0.898906886578,-0.263279169798,0.0246258974075,,-0.927876770496,-0.173463195562,6.62978315353,0.00905521307141,0.0
1536033146822067322,,252,,1536033146,821527604,'',1,0,,1.35398709774,-0.983401834965,1.50515758991,,-1.37060976028,-0.418910712004,0.0208208560944,,-1.24688458443,-0.278919428587,6.62273597717,0.00905521307141,0.0
1536033146932532589,,253,,1536033146,931843391,'',1,0,,1.34749615192,-0.995280086994,1.50515758991,,-1.86145305634,-0.591021835804,0.0174958705902,,-1.53614544868,-0.397393614054,6.6261677742,0.00905521307141,0.0
1536033147032359835,,254,,1536033147,31935059,'',1,0,,1.32652425766,-1.01050710678,1.50515758991,,-2.3133649826,-0.76414257288,0.0145095586777,,-1.77247262001,-0.498284310102,6.59630680084,0.00905521307141,0.0
1536033147152468929,,255,,1536033147,151614488,'',1,0,,1.28668582439,-1.03210425377,1.50515758991,,-2.78662252426,-0.931669473648,0.0111010074615,,-2.03086137772,-0.59072971344,6.58072137833,0.00905521307141,0.0
1536033147222642398,,256,,1536033147,221982652,'',1,0,,1.22528493404,-1.06069076061,1.50515758991,,-3.27551531792,-0.945410966873,0.00742709636688,,-2.2872607708,-0.530699491501,6.58270835876,0.00905521307141,0.0
1536033147322013942,,257,,1536033147,321702432,'',1,0,,1.14169979095,-1.09645175934,1.50515758991,,-3.38948702812,-0.547722101212,0.00414276123047,,-2.21625232697,-0.149395629764,6.58598279953,0.00905521307141,0.0
1536033147422045470,,258,,1536033147,421731110,'',1,0,,1.03428113461,-1.13756024837,1.50515758991,,-2.97983598709,-0.266634166241,0.00188887119293,,-1.68364179134,0.110864527524,6.62841463089,0.00905521307141,0.0
1536033147542973902,,259,,1536033147,542554351,'',1,0,,0.905563294888,-1.1801867485,1.50515758991,,-2.63891434669,0.099115729332,0.000897169113159,,-1.28864896297,0.402551949024,6.65540027618,0.00905521307141,0.0
1536033147632346859,,260,,1536033147,631785616,'',1,0,,0.757954716682,-1.22061789036,1.50515758991,,-2.34598755836,0.502060294151,-0.000719785690308,,-0.966530799866,0.675695598125,6.64708852768,0.00905521307141,0.0
1536033147723390732,,261,,1536033147,723165712,'',1,0,,0.60107344389,-1.25385689735,1.50515758991,,-1.91041064262,0.728950321674,-0.00551474094391,,-0.606321036816,0.775281429291,6.61001205444,0.00905521307141,0.0
1536033147822783789,,262,,1536033147,822159394,'',1,0,,0.441896557808,-1.27673017979,1.50515758991,,-1.43627083302,0.817389309406,-0.0135411024094,,-0.207957014441,0.743671357632,6.56503486633,0.00905521307141,0.0
1536033147923549454,,263,,1536033147,922970847,'',1,0,,0.274284213781,-1.28950190544,1.50515758991,,-0.94695442915,0.911431610584,-0.0232092142105,,0.141277372837,0.740547597408,6.55295848846,0.00905521307141,0.0
1536033148022677627,,264,,1536033148,22255163,'',1,0,,0.109409742057,-1.29097473621,1.50515758991,,-0.451365202665,0.98731815815,-0.0338097810745,,0.494080483913,0.727433502674,6.53550434113,0.00905521307141,0.0
1536033148132586939,,265,,1536033148,132113261,'',1,0,,-0.0472028777003,-1.28133964539,1.50515758991,,0.0462815910578,0.982329130173,-0.0429655313492,,0.803530395031,0.655317425728,6.51912117004,0.00905521307141,0.0
1536033148221703074,,266,,1536033148,221230971,'',1,0,,-0.197183042765,-1.2607139349,1.50515758991,,0.560068190098,0.893309891224,-0.0500425100327,,1.09807789326,0.518929123878,6.55144262314,0.00905521307141,0.0
1536033148322419737,,267,,1536033148,322077313,'',1,0,,-0.323209971189,-1.23141348362,1.50515758991,,1.06017231941,0.812203884125,-0.0540959835052,,1.3574668169,0.411908358335,6.56259202957,0.00905521307141,0.0
1536033148421926248,,268,,1536033148,421215537,'',1,0,,-0.418922543526,-1.19706654549,1.50515758991,,1.53198552132,0.737057685852,-0.0551592111588,,1.55471384525,0.322491884232,6.57050800323,0.00905521307141,0.0
1536033148524523922,,269,,1536033148,524307852,'',1,0,,-0.493451446295,-1.15466022491,1.50515758991,,2.04927325249,0.655229747295,-0.054136633873,,1.79396951199,0.248821571469,6.59042692184,0.00905521307141,0.0
1536033148622174960,,270,,1536033148,621682281,'',1,0,,-0.536889255047,-1.10990309715,1.50515758991,,2.5378882885,0.578007638454,-0.0510586500168,,2.01413726807,0.169824689627,6.6250576973,0.00905521307141,0.0
1536033148722225513,,271,,1536033148,721652607,'',1,0,,-0.549729347229,-1.06393074989,1.50515758991,,3.03568983078,0.499431341887,-0.04674243927,,2.24320983887,0.101683966815,6.62887191772,0.00905521307141,0.0
1536033148821951744,,272,,1536033148,821432277,'',1,0,,-0.53282648325,-1.0192514658,1.50515758991,,3.50738930702,0.423136621714,-0.0414873361588,,2.43012404442,0.0597810000181,6.64039182663,0.00905521307141,0.0
1536033148932228005,,273,,1536033148,931735901,'',1,0,,-0.480830341578,-0.971657454967,1.50515758991,,4.02179574966,0.33448266983,-0.0357415676117,,2.6285777092,-0.0044322470203,6.62874794006,0.00905521307141,0.0
1536033149032567218,,274,,1536033149,31965423,'',1,0,,-0.396458387375,-0.927043616772,1.50515758991,,4.49398994446,0.196617931128,-0.0311291217804,,2.79682779312,-0.113086372614,6.60293531418,0.00905521307141,0.0
1536033149122315786,,275,,1536033149,121451933,'',1,0,,-0.281664967537,-0.885653734207,1.50515758991,,4.05182170868,0.0972584784031,-0.0278602838516,,2.16176962852,-0.172092422843,6.56760549545,0.00905521307141,0.0
1536033149222114432,,276,,1536033149,221285855,'',1,0,,-0.131613060832,-0.845983207226,1.50515758991,,0.88550901413,0.238583177328,-0.025480389595,,-0.749679863453,-0.0262947175652,6.60569620132,0.00905521307141,0.0
1536033149322915422,,277,,1536033149,322456857,'',1,0,,0.0353700742126,-0.809458673,1.50515758991,,2.18544484598e-18,-4.39925822059e-34,-0.0178455114365,,-1.37122285366,-0.2023447752,6.72775363922,0.00905521307141,0.0
1536033149422564525,,278,,1536033149,422179413,'',1,0,,0.197173938155,-0.776385247707,1.50515758991,,-0.159788459539,-0.00144695793279,-0.0068770647049,,-1.23260343075,-0.187477722764,6.78044986725,0.00905521307141,0.0
1536033149532204491,,279,,1536033149,531899818,'',1,0,,0.337941199541,-0.747245013714,1.50515758991,,-0.663052737713,-0.0060042492114,0.00708222389221,,-1.39457905293,-0.165393143892,6.83161497116,0.00905521307141,0.0
1536033149632624981,,280,,1536033149,631876945,'',1,0,,0.454317688942,-0.721616327763,1.50515758991,,-1.15978252888,-0.0105023644865,0.0217102766037,,-1.62310671806,-0.123729705811,6.84141540527,0.00905521307141,0.0
1536033149732526355,,281,,1536033149,731976362,'',1,0,,0.543978750706,-0.700106680393,1.50515758991,,-1.66103696823,-0.0150414528325,0.0369476079941,,-1.85586583614,-0.108834303916,6.8368678093,0.00905521307141,0.0
